City_ID,City,Lat,Lng,Max Temp,Humidity,Cloudiness,Wind Speed,Country,Date
0,margaret river,-33.95,115.0667,14.490000000000009,91,3,1.78,AU,1701192046
1,grytviken,-54.2811,-36.5092,1.2900000000000205,73,9,3.96,GS,1701192046
2,anadyr,64.75,177.4833,-3.7199999999999704,85,75,11.0,RU,1701192047
3,altay,47.8667,88.1167,-2.4599999999999795,52,1,4.3,CN,1701192047
4,punta arenas,-53.15,-70.9167,13.010000000000048,47,40,15.43,CL,1701192032
5,bredasdorp,-34.5322,20.0403,18.430000000000007,59,29,6.53,ZA,1701192047
6,bodaybo,57.8506,114.1933,-16.21999999999997,99,100,1.28,RU,1701192047
7,bethel,41.3712,-73.414,4.2000000000000455,52,40,5.66,US,1701192048
8,port lincoln,-34.7333,135.8667,15.100000000000023,86,93,7.48,AU,1701192048
9,mandera,3.9366,41.867,31.110000000000014,37,10,3.02,KE,1701192048
10,laguna,38.421,-121.4238,12.760000000000048,73,0,2.06,US,1701192048
11,condega,13.365,-86.3985,27.170000000000016,59,50,4.32,NI,1701192048
12,nova sintra,14.8667,-24.7167,22.02000000000004,69,23,4.49,CV,1701192049
13,santa ana de yacuma,-13.75,-65.4333,27.970000000000027,89,75,1.03,BO,1701192049
14,olonkinbyen,70.9221,-8.7187,1.9300000000000068,77,40,5.89,SJ,1701192049
15,akjoujt,19.6969,-14.4164,31.180000000000007,9,82,2.21,MR,1701192049
16,port-aux-francais,-49.35,70.2167,4.689999999999998,96,100,14.36,TF,1701192049
17,okakarara,-20.5833,17.4333,33.31,14,53,1.37,NA,1701192049
18,adamstown,-25.066,-130.1015,23.110000000000014,86,99,8.07,PN,1701192050
19,blackmans bay,-43.0167,147.3167,11.07000000000005,95,100,2.08,AU,1701192050
20,vernon,50.2581,-119.2691,3.340000000000032,60,10,1.03,CA,1701192050
21,quepos,9.4236,-84.1652,29.55000000000001,66,9,2.32,CR,1701192050
22,ulety,51.3572,112.4849,-15.96999999999997,82,89,4.37,RU,1701192050
23,queenstown,-31.8976,26.8753,18.379999999999995,76,42,5.31,ZA,1701192026
24,cromwell,41.5951,-72.6454,5.020000000000039,43,75,8.23,US,1701192051
25,iqaluit,63.7506,-68.5145,-1.1499999999999773,92,75,9.26,CA,1701192051
26,kulhudhuffushi,6.6221,73.07,28.340000000000032,69,100,2.29,MV,1701192051
27,puerto natales,-51.7236,-72.4875,8.25,81,75,10.8,CL,1701192051
28,keflavik,64.0049,-22.5624,1.9500000000000455,86,75,3.6,IS,1701192051
29,leava,-14.3,-178.1667,28.660000000000025,79,82,9.14,WF,1701192052
30,ushuaia,-54.8,-68.3,15.810000000000002,33,40,4.12,AR,1701192052
31,coahuayana de hidalgo,18.7,-103.6583,29.80000000000001,55,100,1.14,MX,1701192052
32,longyearbyen,78.2186,15.6401,2.910000000000025,75,75,5.66,SJ,1701191842
33,waitangi,-43.9535,-176.5597,14.340000000000032,93,83,1.79,NZ,1701192053
34,oranjestad,12.524,-70.027,30.970000000000027,70,75,10.29,AW,1701192053
35,yerofey pavlovich,53.9667,121.9667,-14.799999999999955,61,100,3.83,RU,1701192053
36,whitehorse,60.7161,-135.0538,-6.569999999999993,68,20,1.03,CA,1701192053
37,bilibino,68.0546,166.4372,-28.94999999999999,100,99,1.17,RU,1701192054
38,praia da vitoria,38.7333,-27.0667,20.140000000000043,77,75,3.74,PT,1701192054
39,hithadhoo,-0.6,73.0833,28.02000000000004,75,100,3.96,MV,1701192054
40,rosetta,31.4044,30.4164,17.590000000000032,54,86,3.14,EG,1701192054
41,three points,32.0767,-111.3137,20.210000000000036,36,100,2.76,US,1701192054
42,orapa,-21.2833,25.3667,32.129999999999995,15,1,3.67,BW,1701192055
43,tiksi,71.6872,128.8694,-16.549999999999955,90,100,9.5,RU,1701192055
44,west island,-12.1568,96.8225,25.99000000000001,73,40,5.14,CC,1701192055
45,nuuk,64.1835,-51.7216,0.34000000000003183,43,100,7.2,GL,1701192033
46,tazovsky,67.4667,78.7,-15.899999999999977,96,100,3.94,RU,1701192055
47,port elizabeth,-33.918,25.5701,20.170000000000016,79,0,8.75,ZA,1701192055
48,aksuat,48.7167,83.7,-1.1200000000000045,62,72,0.96,KZ,1701192056
49,nemuro,43.3236,145.575,3.580000000000041,71,43,11.13,JP,1701192056
50,udachny,66.4167,112.4,-17.99999999999997,94,98,7.47,RU,1701192056
51,pontes e lacerda,-15.2261,-59.3353,37.64000000000004,31,94,1.65,BR,1701192056
52,wailua homesteads,22.0669,-159.378,20.439999999999998,85,75,2.06,US,1701192057
53,nema,57.5067,50.5011,-4.279999999999973,95,100,2.76,RU,1701192057
54,invercargill,-46.4,168.35,7.7900000000000205,81,95,1.79,NZ,1701192057
55,albany,42.6001,-73.9662,1.1299999999999955,43,73,3.13,US,1701192057
56,college,64.8569,-147.8028,-6.96999999999997,89,75,0.0,US,1701192057
57,jayapura,-2.5333,140.7,24.660000000000025,89,100,0.66,ID,1701192057
58,papatowai,-46.5619,169.4708,8.180000000000007,67,100,5.64,NZ,1701192058
59,ixtapa,20.7,-105.2,27.900000000000034,61,75,1.79,MX,1701192058
60,la passe,45.5549,-0.8967,7.210000000000036,69,7,1.49,FR,1701192058
61,hermanus,-34.4187,19.2345,17.910000000000025,70,39,4.8,ZA,1701192058
62,ribeira grande,38.5167,-28.7,19.32000000000005,94,75,8.05,PT,1701192058
63,yazd,31.8972,54.3675,14.060000000000002,28,0,1.03,IR,1701192031
64,mizunami,35.3667,137.25,6.850000000000023,91,33,1.68,JP,1701192059
65,carlow,52.8408,-6.9261,5.740000000000009,92,24,0.87,IE,1701192059
66,anchorage,61.2181,-149.9003,3.0200000000000387,76,100,5.14,US,1701192059
67,yellowknife,62.456,-114.3525,-14.769999999999982,96,75,1.03,CA,1701191847
68,slave lake,55.2834,-114.769,0.9900000000000091,86,0,2.06,CA,1701191898
69,avarua,-21.2078,-159.775,24.03000000000003,88,75,7.72,CK,1701191807
70,jamestown,42.097,-79.2353,-2.2299999999999613,92,100,7.2,US,1701191905
71,carnarvon,-24.8667,113.6333,21.110000000000014,69,54,7.19,AU,1701192060
72,laizhou,37.1717,119.9214,0.4399999999999977,42,95,1.71,CN,1701192060
73,labytnangi,66.6572,66.4183,-11.339999999999975,94,100,6.29,RU,1701192060
74,antofagasta,-23.65,-70.4,20.600000000000023,66,13,4.89,CL,1701191862
75,nikolayevsk-on-amure,53.1406,140.73,-19.079999999999984,94,95,1.53,RU,1701192061
76,newman,37.3138,-121.0208,11.830000000000041,45,36,0.51,US,1701192061
77,minas de marcona,-15.2119,-75.1103,21.04000000000002,54,36,7.53,PE,1701192061
78,tangalle,6.024,80.7911,24.620000000000005,86,100,1.21,LK,1701192061
79,edinburgh of the seven seas,-37.0676,-12.3116,14.240000000000009,78,84,8.49,SH,1701192062
80,new norfolk,-42.7826,147.0587,11.720000000000027,97,100,0.72,AU,1701192062
81,mount isa,-20.7333,139.5,22.870000000000005,73,0,2.06,AU,1701192062
82,taulaga,-11.0553,-171.0883,28.129999999999995,77,100,7.76,AS,1701192063
83,tura,25.5198,90.2201,19.230000000000018,69,85,1.43,IN,1701192063
84,vilyuchinsk,52.9306,158.4028,-8.370000000000005,88,74,3.3,RU,1701192064
85,thompson,55.7435,-97.8558,-13.909999999999968,78,75,1.03,CA,1701192064
86,karungdong,5.8844,121.263,27.200000000000045,82,64,1.66,PH,1701192064
87,st. john's,47.5649,-52.7093,9.879999999999995,95,100,15.43,CA,1701192064
88,luderitz,-26.6481,15.1594,24.710000000000036,49,95,14.54,NA,1701192065
89,adrar,20.5022,-10.0711,25.060000000000002,11,48,2.23,MR,1701192065
90,ishikawa,26.4233,127.8214,18.980000000000018,59,0,2.57,JP,1701192065
91,ust-nera,64.5667,143.2,-22.909999999999968,98,100,0.97,RU,1701192066
92,sao jose da coroa grande,-8.8978,-35.1478,28.140000000000043,61,48,5.34,BR,1701192066
93,hadibu,12.65,54.0333,25.879999999999995,67,100,5.78,YE,1701192066
94,monywa,22.1167,95.1333,20.470000000000027,80,49,2.13,MM,1701192066
95,potosi,-19.5836,-65.7531,15.480000000000018,44,40,4.12,BO,1701192067
96,selfoss,63.9331,-20.9971,1.2300000000000182,85,100,2.79,IS,1701192067
97,uturoa,-16.7333,-151.4333,26.700000000000045,77,74,8.45,PF,1701192067
98,iskateley,67.6803,53.1512,-17.20999999999998,95,86,4.92,RU,1701192068
99,ghat,24.9647,10.1728,22.07000000000005,13,0,2.31,LY,1701192068
100,safi,32.1667,-8.8333,17.390000000000043,56,41,5.2,MA,1701192068
101,isafjordur,66.0755,-23.124,-0.9799999999999613,74,0,0.0,IS,1701192069
102,nabire,-3.3667,135.4833,23.590000000000032,94,100,2.53,ID,1701192069
103,kassala,15.451,36.4,30.930000000000007,23,0,4.44,SD,1701192070
104,sitka,57.0531,-135.33,3.9399999999999977,87,75,2.57,US,1701192070
105,sarupathar,26.1984,93.8094,17.230000000000018,89,2,0.36,IN,1701192070
106,hawaiian paradise park,19.5933,-154.9731,22.24000000000001,86,0,2.57,US,1701192070
107,qaqortoq,60.7167,-46.0333,-7.529999999999973,67,100,2.35,GL,1701192071
108,petropavlovsk-kamchatsky,53.0452,158.6483,-9.189999999999998,86,0,6.0,RU,1701192071
109,ballina,-28.8667,153.5667,19.32000000000005,94,99,3.37,AU,1701192072
110,cabo san lucas,22.8909,-109.9124,28.200000000000045,62,0,1.54,MX,1701192003
111,kodiak,57.79,-152.4072,5.730000000000018,70,100,8.75,US,1701192072
112,nelson bay,-32.7167,152.15,21.160000000000025,95,94,7.15,AU,1701192072
113,codrington,-38.2667,141.9667,14.890000000000043,92,100,9.47,AU,1701192073
114,serenje,-13.2325,30.2352,23.060000000000002,50,89,0.99,ZM,1701192073
115,greenland,43.0362,-70.8328,4.600000000000023,45,40,7.2,US,1701192073
116,badger,64.8,-147.5333,-7.009999999999991,90,20,0.0,US,1701191775
117,brooks,50.5834,-111.8851,0.020000000000038654,64,8,2.06,CA,1701192073
118,sant antoni de portmany,38.9807,1.3036,18.54000000000002,71,0,6.69,ES,1701192074
119,morehead city,34.7229,-76.726,9.439999999999998,49,0,5.66,US,1701192074
120,georgetown,5.4112,100.3354,26.960000000000036,79,20,2.06,MY,1701191898
121,lompoc,34.6391,-120.4579,18.29000000000002,52,0,3.6,US,1701192075
122,holualoa,19.6228,-155.9522,20.99000000000001,84,100,2.57,US,1701192075
123,tazacorte,28.629,-17.9293,22.54000000000002,78,20,1.79,ES,1701192075
124,ialibu,-6.2821,143.9935,14.560000000000002,100,100,0.33,PG,1701192075
125,okhotsk,59.3833,143.3,-11.25,91,100,2.77,RU,1701192076
126,roma,43.2128,-75.4557,0.05000000000001137,55,100,10.29,US,1701191830
127,marilia,-22.2139,-49.9458,33.27000000000004,35,77,4.42,BR,1701192076
128,san ignacio de velasco,-16.3667,-60.95,35.26000000000005,33,79,3.98,BO,1701192076
129,antsiranana,-12.2787,49.2917,25.670000000000016,84,33,4.58,MG,1701192077
130,mountain home,43.133,-115.6912,-3.8100000000000023,75,0,3.6,US,1701192077
131,carolina,18.3808,-65.9574,32.07000000000005,71,40,6.69,PR,1701191781
132,altai,46.3722,96.2583,-15.829999999999984,86,2,1.28,MN,1701192078
133,hoemul-li,41.4339,129.67,-3.359999999999957,33,3,4.82,KP,1701192078
134,dwarka,22.2394,68.9678,23.629999999999995,53,0,6.31,IN,1701192079
135,kapuskasing,49.4169,-82.4331,-11.949999999999989,78,100,6.17,CA,1701192003
136,farah,32.5,62.5,14.340000000000032,24,0,1.02,AF,1701192079
137,high river,50.5834,-113.8687,2.3100000000000023,38,1,2.65,CA,1701192079
138,rio grande,-32.035,-52.0986,26.060000000000002,80,100,9.57,BR,1701192080
139,fuerte olimpo,-21.0415,-57.8738,35.59000000000003,38,69,3.35,PY,1701191877
140,kutum,14.2,24.6667,23.939999999999998,20,2,3.78,SD,1701192080
141,awjilah,29.1081,21.2869,16.720000000000027,32,19,2.76,LY,1701192081
142,kone,-21.0595,164.8658,21.439999999999998,85,100,1.94,NC,1701192081
143,happy valley-goose bay,53.3168,-60.3315,4.170000000000016,81,75,5.14,CA,1701192040
144,darovskoy,58.77,47.9564,-5.529999999999973,98,100,1.57,RU,1701192081
145,kingston,17.997,-76.7936,30.129999999999995,72,75,2.06,JM,1701191802
146,mount gambier,-37.8333,140.7667,14.670000000000016,90,100,6.08,AU,1701192082
147,muromtsevo,56.3724,75.2418,-5.8700000000000045,83,94,3.99,RU,1701192082
148,klyuchi,52.2667,79.1667,-0.8100000000000023,62,100,4.61,RU,1701192082
149,alice springs,-23.7,133.8833,21.75,49,18,3.6,AU,1701191960
150,rechytsa,52.3617,30.3916,-7.939999999999998,91,97,4.05,BY,1701192083
151,port mathurin,-19.6833,63.4167,25.29000000000002,72,9,4.36,MU,1701192083
152,kashin,57.3592,37.6081,-7.8700000000000045,93,97,4.87,RU,1701192084
153,bismarck,46.8083,-100.7837,4.78000000000003,61,0,7.2,US,1701191850
154,atafu village,-8.5421,-172.5159,27.900000000000034,81,100,9.6,TK,1701192084
155,baganga,7.5739,126.56,25.720000000000027,87,75,1.73,PH,1701192084
156,kailua-kona,19.6406,-155.9956,23.060000000000002,83,100,2.57,US,1701192085
157,tyukhtet,56.5389,89.3011,-13.989999999999952,94,52,2.85,RU,1701192085
158,masterton,-40.9597,175.6575,11.050000000000011,98,93,2.03,NZ,1701191787
159,el granada,37.5027,-122.4694,14.939999999999998,56,0,0.0,US,1701192086
160,kosong,38.3788,128.4676,0.27000000000003865,46,5,5.86,KR,1701192086
161,gadzhiyevo,69.2551,33.3362,-1.259999999999991,81,99,8.43,RU,1701192086
162,atlantic beach,30.3344,-81.3987,13.120000000000005,50,0,6.17,US,1701192087
163,aasiaat,68.7098,-52.8699,-11.629999999999995,79,90,7.72,GL,1701192087
164,okha,53.5739,142.9478,-13.589999999999975,90,67,2.88,RU,1701192087
165,vorgashor,67.5833,63.95,-17.519999999999982,93,81,3.04,RU,1701192088
166,sinabang,2.4803,96.3801,26.49000000000001,85,100,3.92,ID,1701191900
167,bataipora,-22.2953,-53.2711,34.56,40,56,4.55,BR,1701192088
168,inhambane,-23.865,35.3833,25.340000000000032,77,0,5.89,MZ,1701192088
169,tual,-5.6667,132.75,27.77000000000004,76,100,0.78,ID,1701192089
170,morondava,-20.2833,44.2833,27.100000000000023,78,5,6.32,MG,1701192089
171,lata,40.1629,-8.3327,16.560000000000002,95,97,1.59,PT,1701192089
172,raduzhny,62.0961,77.475,-3.919999999999959,87,100,4.08,RU,1701192090
173,afaahiti,-17.75,-149.2833,25.930000000000007,83,99,9.25,PF,1701192090
174,corumba,-19.0092,-57.6533,35.84000000000003,49,40,5.14,BR,1701192090
175,toyooka,35.5333,134.8333,5.760000000000048,68,26,3.24,JP,1701192091
176,talnakh,69.4865,88.3972,-24.00999999999999,99,38,2.05,RU,1701192091
177,monrovia,6.3005,-10.7969,27.870000000000005,78,100,1.74,LR,1701192091
178,swainsboro,32.5974,-82.3337,11.939999999999998,37,0,6.69,US,1701192092
179,vrede,-27.4257,29.1659,19.060000000000002,66,83,4.7,ZA,1701192092
180,aibak,36.2647,68.0155,14.270000000000039,28,100,1.16,AF,1701192092
181,saipan,15.1355,145.701,27.390000000000043,83,75,5.66,MP,1701192093
182,katsuren-haebaru,26.3369,127.8719,19.010000000000048,59,0,2.57,JP,1701192093
183,belpre,39.274,-81.5729,-2.0,60,100,6.17,US,1701192093
184,lihue,21.9789,-159.3672,20.77000000000004,87,75,2.06,US,1701192094
185,jaunjelgava,56.6167,25.0833,-4.279999999999973,95,94,3.14,LV,1701192094
186,cockburn town,21.4612,-71.1419,27.160000000000025,68,6,5.09,TC,1701192095
187,edd,13.9297,41.6925,27.670000000000016,68,81,3.24,ER,1701192095
188,karangampel,-6.4622,108.4519,26.870000000000005,77,99,3.95,ID,1701192096
189,burang,30.25,81.1667,-7.539999999999964,94,92,1.13,CN,1701192096
190,fuxin,42.0156,121.6589,-10.810000000000002,63,7,3.55,CN,1701192096
191,amol,36.4696,52.3507,13.390000000000043,95,100,1.34,IR,1701192097
192,chimoio,-19.1164,33.4833,25.33000000000004,25,88,2.09,MZ,1701191807
193,twentynine palms,34.1356,-116.0542,15.03000000000003,31,98,1.36,US,1701191963
194,newcastle west,52.4492,-9.0611,6.6200000000000045,89,49,1.13,IE,1701192097
195,whakatane,-37.9585,176.9854,14.170000000000016,90,20,0.45,NZ,1701192098
196,talladega,33.4359,-86.1058,10.970000000000027,36,0,8.75,US,1701192098
197,tindouf,27.6711,-8.1474,25.25,18,0,8.23,DZ,1701192098
198,hamilton,39.1834,-84.5333,-2.419999999999959,62,100,4.12,US,1701192099
199,ajdabiya,30.7554,20.2263,17.629999999999995,37,1,4.44,LY,1701192099
200,touros,-5.1989,-35.4608,28.810000000000002,63,86,6.61,BR,1701192099
201,pandan,14.0453,124.1694,27.120000000000005,87,99,5.16,PH,1701192100
202,puerto san jose,13.9256,-90.8244,28.930000000000007,63,100,1.12,GT,1701192100
203,saldanha,-33.0117,17.9442,20.03000000000003,72,2,7.0,ZA,1701192100
204,arteche,12.2645,125.4048,26.879999999999995,89,98,3.5,PH,1701192101
205,callao,-12.0667,-77.15,21.160000000000025,73,75,4.63,PE,1701191992
206,chibougamau,49.9168,-74.3659,-11.20999999999998,85,100,3.6,CA,1701192104
207,bengkulu,-3.8004,102.2655,23.930000000000007,92,59,1.43,ID,1701192105
208,goundi,9.3627,17.366,31.390000000000043,27,36,2.0,TD,1701192105
209,panaba,21.2833,-88.2667,27.660000000000025,65,100,7.95,MX,1701192106
210,bikenibeu village,1.3673,173.1241,26.980000000000018,94,40,0.0,KI,1701192106
211,zhosaly,45.4878,64.0781,11.510000000000048,51,54,3.67,KZ,1701191955
212,valdivia,-39.8142,-73.2459,17.05000000000001,42,19,3.77,CL,1701191926
213,coronel oviedo,-25.4167,-56.45,29.760000000000048,69,78,2.64,PY,1701192108
214,constantia,44.1833,28.65,8.379999999999995,88,100,15.69,RO,1701191889
215,fort mcmurray,56.7268,-111.381,2.7700000000000387,64,0,5.66,CA,1701192059
216,seminole,28.7086,-81.2081,14.090000000000032,62,0,3.09,US,1701191852
217,flying fish cove,-10.4217,105.6791,26.05000000000001,69,62,8.03,CX,1701192036
218,nyagan,62.1406,65.3936,-1.3899999999999864,98,99,1.13,RU,1701192109
219,stanley,54.868,-1.6985,2.1000000000000227,89,20,4.12,GB,1701191847
220,noshiro,40.2039,140.0242,4.090000000000032,58,100,12.12,JP,1701192112
221,puerto quijarro,-17.7833,-57.7667,39.52000000000004,27,57,3.55,BO,1701192113
222,currais novos,-6.2608,-36.5178,30.950000000000045,44,68,7.03,BR,1701192113
223,akureyri,65.6835,-18.0878,-0.03999999999996362,100,75,0.0,IS,1701192114
224,plettenberg bay,-34.0527,23.3716,17.74000000000001,85,100,6.82,ZA,1701192114
225,ambar,37.8532,40.5278,3.7700000000000387,43,2,0.7,TR,1701192114
226,saurimo,-9.6608,20.3916,19.760000000000048,96,89,2.63,AO,1701192115
227,pechora,65.1472,57.2244,-12.299999999999955,97,99,2.68,RU,1701192116
228,ilulissat,69.2167,-51.1,-6.989999999999952,63,20,13.89,GL,1701192116
229,lijiang,26.8688,100.2207,5.260000000000048,72,21,2.2,CN,1701192117
230,coxen hole,16.3244,-86.5366,29.600000000000023,66,20,6.17,HN,1701192117
231,karratha,-20.7377,116.8463,24.160000000000025,53,1,9.62,AU,1701192118
232,taoudenni,22.6783,-3.9836,25.200000000000045,11,7,2.66,ML,1701192119
233,nagqu,31.5,92.0,-3.2399999999999523,61,100,1.38,CN,1701192119
234,harstad,68.799,16.5293,-1.0299999999999727,78,10,2.64,NO,1701192119
235,khovd,48.0056,91.6419,-9.299999999999955,93,10,0.41,MN,1701192120
236,korla,41.7597,86.1469,4.5400000000000205,39,100,2.92,CN,1701192120
237,rabo de peixe,37.8,-25.5833,18.730000000000018,99,20,3.09,PT,1701192121
238,port macquarie,-31.4333,152.9167,18.27000000000004,82,89,5.54,AU,1701191919
239,butembo,0.15,29.2833,14.960000000000036,97,98,0.79,CD,1701192121
240,morant bay,17.8815,-76.4093,30.390000000000043,76,46,4.3,JM,1701192122
241,mariental,-24.6333,17.9667,31.77000000000004,12,99,14.1,NA,1701192124
242,kapa'a,22.0752,-159.319,21.180000000000007,85,75,2.06,US,1701192124
243,palangkaraya,-2.2,113.8333,23.560000000000002,98,100,0.13,ID,1701192124
244,darnah,32.767,22.6367,17.610000000000014,37,22,10.34,LY,1701192125
245,lorengau,-2.0226,147.2712,27.02000000000004,78,83,0.95,PG,1701192126
246,joao pinheiro,-17.7425,-46.1725,32.97000000000003,31,99,1.65,BR,1701192127
247,nizhneangarsk,55.7833,109.55,-14.439999999999998,68,29,3.13,RU,1701192128
248,ostersund,63.1792,14.6357,-5.75,86,100,4.12,SE,1701191935
249,fale old settlement,-9.3852,-171.2468,27.230000000000018,83,90,7.03,TK,1701192129
250,les sables-d'olonne,46.6667,-1.8333,7.439999999999998,55,70,1.12,FR,1701192130
251,kollegal,12.15,77.1167,20.700000000000045,90,95,1.87,IN,1701192130
252,west bay,19.3667,-81.4167,31.04000000000002,74,20,5.66,KY,1701192130
253,kabare,-2.4683,28.8242,17.010000000000048,94,98,1.06,CD,1701192131
254,remire-montjoly,4.9167,-52.2667,31.02000000000004,66,75,6.17,GF,1701192131
255,luang namtha,20.9497,101.4011,15.75,76,7,0.33,LA,1701192132
256,turpan,42.9333,89.1667,4.730000000000018,38,100,0.84,CN,1701192132
257,christchurch,-43.5333,172.6333,9.410000000000025,85,75,3.09,NZ,1701192131
258,birao,10.2849,22.7882,28.80000000000001,19,0,2.9,CF,1701192133
259,demba,-5.51,22.2667,21.29000000000002,99,100,1.3,CD,1701192134
260,utrik,11.2278,169.8474,27.210000000000036,73,100,7.73,MH,1701192077
261,moses lake,47.1301,-119.2781,-5.6200000000000045,100,100,0.0,US,1701192134
262,wladyslawowo,54.7909,18.4009,1.07000000000005,69,99,5.36,PL,1701192135
263,deschutes river woods,43.9915,-121.3584,3.7100000000000364,93,0,0.0,US,1701192135
264,laojunmiao,39.8333,97.7333,-4.069999999999993,56,65,3.12,CN,1701192135
265,hammerfest,70.6634,23.6821,0.25,74,75,4.12,NO,1701192136
266,eastham,41.8301,-69.9739,5.0400000000000205,46,100,5.66,US,1701191941
267,rongelap,11.1635,166.8941,27.730000000000018,70,99,9.55,MH,1701192136
268,gunjur,13.2019,-16.7339,31.04000000000002,51,0,4.63,GM,1701192137
269,rikaze,29.25,88.8833,-0.3299999999999841,51,100,1.64,CN,1701192137
270,puerto ayora,-0.7393,-90.3518,26.980000000000018,98,62,4.92,EC,1701192138
271,namdrik,5.5994,168.1028,27.860000000000014,82,100,8.11,MH,1701192138
272,mineros,-17.1167,-63.2333,31.82000000000005,56,83,5.16,BO,1701192138
273,markovo,57.3206,107.0881,-17.69999999999999,98,100,1.23,RU,1701191846
274,tanggu,39.0211,117.6469,-3.019999999999982,32,11,5.76,CN,1701192139
275,ust'-kut,56.7938,105.7672,-18.539999999999964,100,100,1.01,RU,1701192139
276,maceio,-9.6658,-35.7353,31.689999999999998,51,40,6.17,BR,1701192139
277,kayenta,36.7278,-110.2546,1.1200000000000045,41,0,1.4,US,1701192140
278,sao felix do xingu,-6.6447,-51.995,38.170000000000016,23,13,1.9,BR,1701192140
279,tromso,69.6496,18.957,-6.989999999999952,93,20,1.54,NO,1701192140
280,carutapera,-1.195,-46.02,31.340000000000032,55,67,4.58,BR,1701192141
281,koryazhma,61.3143,47.1691,-4.489999999999952,96,100,2.32,RU,1701192141
282,weno,7.4515,151.8468,27.970000000000027,78,40,2.06,FM,1701192141
283,kamina,-8.7386,24.9906,19.24000000000001,96,82,1.98,CD,1701192142
284,mkuranga,-7.118,39.2078,23.79000000000002,87,46,2.18,TZ,1701192142
285,bafq,31.6128,55.4107,17.670000000000016,23,0,0.66,IR,1701192142
286,badr hunayn,23.7829,38.7905,27.439999999999998,38,12,2.21,SA,1701192142
287,ancud,-41.8697,-73.8203,12.350000000000023,68,12,5.84,CL,1701192143
288,labrador city,52.9463,-66.9114,-4.0499999999999545,80,75,4.63,CA,1701192143
289,chake chake,-5.2459,39.7666,25.850000000000023,85,67,2.69,TZ,1701192144
290,hailar,49.2,119.7,-19.369999999999976,90,100,3.29,CN,1701192144
291,buka,40.8108,69.1986,14.710000000000036,29,78,0.85,UZ,1701192145
292,bathsheba,13.2167,-59.5167,30.340000000000032,74,75,5.14,BB,1701192145
293,ghadamis,30.1337,9.5007,17.890000000000043,27,2,3.89,LY,1701192145
294,yangambi,0.8102,24.4336,23.160000000000025,94,100,1.11,CD,1701192146
295,bigadic,39.3925,28.1311,10.550000000000011,67,100,6.57,TR,1701192146
296,chonchi,-42.6128,-73.8092,15.620000000000005,52,77,3.73,CL,1701192147
297,quellon,-43.1167,-73.6167,13.28000000000003,66,91,5.4,CL,1701192147
298,ketchikan,55.3422,-131.6461,6.990000000000009,87,40,3.09,US,1701192147
299,beloyarskiy,63.7119,66.6722,-2.7799999999999727,98,100,0.89,RU,1701192148
300,yaya,56.206,86.44,-11.20999999999998,89,16,3.89,RU,1701192148
301,pontianak,-0.0333,109.3333,24.99000000000001,100,100,0.51,ID,1701192148
302,mesolongi,38.3702,21.4295,18.860000000000014,81,100,9.57,GR,1701192149
303,nogliki,51.8333,143.1667,-14.810000000000002,79,94,4.02,RU,1701192149
304,berezovyy,51.6667,135.7,-16.599999999999966,82,97,0.45,RU,1701192149
305,zholymbet,51.7433,71.7122,-1.5399999999999636,74,26,3.57,KZ,1701192150
306,barda,40.3744,47.1267,9.300000000000011,41,7,1.62,AZ,1701192150
307,orda,57.1951,56.9091,0.9200000000000159,98,100,1.51,RU,1701192151
308,huron,41.1501,-82.5499,-3.6899999999999977,67,84,7.29,US,1701192151
309,tocopilla,-22.092,-70.1979,22.010000000000048,65,12,4.6,CL,1701192151
310,kruisfontein,-34.0033,24.7314,17.78000000000003,74,82,8.71,ZA,1701192152
311,kendari,-3.945,122.4989,25.110000000000014,87,98,0.22,ID,1701192152
312,bandipura,34.4167,74.65,8.600000000000023,56,14,2.41,IN,1701192152
313,port alfred,-33.5906,26.891,20.100000000000023,85,21,3.58,ZA,1701192153
314,yaren,-0.5472,166.916,28.900000000000034,72,97,2.48,NR,1701192153
315,igarka,67.4667,86.5833,-17.96999999999997,97,98,3.43,RU,1701192153
316,kolonia,50.9333,6.95,1.8700000000000045,80,100,2.06,DE,1701192147
317,tete,-16.1564,33.5867,33.05000000000001,46,75,5.66,MZ,1701192154
318,banda aceh,5.5577,95.3222,25.510000000000048,87,98,1.12,ID,1701192154
319,puerto baquerizo moreno,-0.9,-89.6,28.55000000000001,79,75,7.2,EC,1701192155
320,maragogi,-9.0122,-35.2225,28.129999999999995,62,52,5.61,BR,1701192143
321,puerto santa,-8.9906,-78.6456,21.78000000000003,76,87,4.87,PE,1701192155
322,santiago de cao,-7.9589,-79.2392,21.07000000000005,78,20,6.69,PE,1701192156
323,montepuez,-13.1256,38.9997,28.27000000000004,54,93,4.12,MZ,1701192156
324,suva,-18.1416,178.4415,24.710000000000036,94,75,1.54,FJ,1701192156
325,astaneh-ye ashrafiyeh,37.2596,49.9444,10.960000000000036,89,100,1.79,IR,1701192157
326,parry sound,45.3501,-80.033,-6.96999999999997,63,97,5.74,CA,1701191576
327,betio village,1.358,172.9211,27.02000000000004,77,100,1.82,KI,1701192157
328,cidreira,-30.1811,-50.2056,19.410000000000025,94,100,8.55,BR,1701192158
329,arauca,7.0847,-70.7591,32.81,49,63,1.57,CO,1701191871
330,khash,28.2211,61.2158,14.180000000000007,64,58,1.95,IR,1701192158
331,rayadrug,14.7,76.8667,22.870000000000005,83,82,4.78,IN,1701192158
332,haiku-pauwela,20.9219,-156.3051,22.25,88,0,1.54,US,1701192159
333,ta`u,-14.2336,-169.5144,26.980000000000018,82,100,8.26,AS,1701192159
334,woolgoolga,-30.1106,153.2007,20.58000000000004,93,100,1.85,AU,1701192159
335,mhamid,29.82,-5.72,21.82000000000005,16,0,3.34,MA,1701192160
336,santa rosa,14.3122,121.1114,27.99000000000001,89,52,5.51,PH,1701192132
337,voznesensk,47.5649,31.3308,4.890000000000043,100,92,6.32,UA,1701192160
338,nuku'alofa,-21.1333,-175.2,24.189999999999998,100,20,1.03,TO,1701192161
339,port moresby,-9.4431,147.1797,23.680000000000007,94,20,5.14,PG,1701192161
340,pyt-yakh,60.7499,72.8582,-4.079999999999984,83,100,4.45,RU,1701192161
341,pinos,22.3,-101.5667,11.620000000000005,74,100,4.26,MX,1701192161
342,richards bay,-28.783,32.0377,26.33000000000004,77,78,3.24,ZA,1701192162
343,inarajan village,13.2736,144.7484,28.08000000000004,89,47,8.64,GU,1701192162
344,mount pearl,47.5166,-52.7813,9.420000000000016,96,100,15.43,CA,1701192162
345,buala,-8.145,159.5921,25.879999999999995,87,93,1.7,SB,1701192162
346,port isabel,26.0734,-97.2086,18.02000000000004,69,100,6.17,US,1701192163
347,viriat,46.2548,5.2157,4.260000000000048,87,100,1.34,FR,1701192163
348,santa ana,33.7456,-117.8678,20.480000000000018,43,20,1.54,US,1701192033
349,starobaltachevo,56.0013,55.9213,0.22000000000002728,100,100,1.01,RU,1701192164
350,aghsu,40.5703,48.4009,7.3799999999999955,74,17,1.74,AZ,1701192164
351,east london,-33.0153,27.9116,20.52000000000004,83,75,5.14,ZA,1701192164
352,sinop,41.7711,34.8709,6.240000000000009,55,51,7.58,TR,1701192165
353,zheleznogorsk,52.331,35.3711,-9.019999999999982,97,84,3.29,RU,1701192165
354,la ronge,55.1001,-105.2842,1.1400000000000432,64,20,5.66,CA,1701192165
355,el tigre,8.8875,-64.2454,31.510000000000048,46,29,5.42,VE,1701192166
356,geraldton,-28.7667,114.6,17.230000000000018,77,49,0.0,AU,1701192166
357,argo,37.6333,22.7333,14.430000000000007,75,70,6.28,GR,1701192166
358,colonia,50.9333,6.95,1.8700000000000045,80,100,2.06,DE,1701192152
359,howrah,22.5892,88.3103,25.0,65,20,0.0,IN,1701192166
360,sibut,5.718,19.0739,24.360000000000014,86,60,1.42,CF,1701192167
361,oodweyne,9.4092,45.064,21.0,56,99,5.03,SO,1701192167
362,kerikeri,-35.2268,173.9474,16.060000000000002,91,94,2.03,NZ,1701192167
363,lebu,-37.6167,-73.65,14.420000000000016,73,51,7.02,CL,1701192167
364,mana,5.6592,-53.7767,29.720000000000027,64,2,4.67,GF,1701192168
365,chania,35.5122,24.0156,16.78000000000003,77,20,0.0,GR,1701192168
366,shenjiamen,29.9576,122.298,15.129999999999995,56,3,5.62,CN,1701192168
367,mar del plata,-38.0023,-57.5575,25.05000000000001,87,0,10.73,AR,1701192168
368,grand falls-windsor,48.9332,-55.6649,9.720000000000027,91,100,6.26,CA,1701192168
369,hargeysa,9.56,44.065,18.54000000000002,67,63,4.66,SO,1701192169
370,vadso,70.0744,29.7487,1.0900000000000318,75,75,8.75,NO,1701192169
371,la isla,18.6,-96.15,22.610000000000014,88,100,0.89,MX,1701192169
372,arsen'yev,44.1631,133.2733,-14.060000000000002,85,95,2.63,RU,1701192169
373,pucon,-39.2822,-71.9543,16.860000000000014,53,66,1.58,CL,1701192170
374,al bawiti,28.3492,28.8659,16.370000000000005,45,98,1.89,EG,1701192170
375,clarkston,33.8096,-84.2396,10.470000000000027,38,0,7.2,US,1701192010
376,brisas de zicatela,15.8369,-97.0419,30.29000000000002,62,40,2.57,MX,1701192170
377,aromashevo,56.8602,68.6375,-1.6499999999999773,77,95,5.57,RU,1701192171
378,sola,-13.8833,167.55,26.370000000000005,83,37,7.98,VU,1701192171
379,vilyuysk,63.7553,121.6247,-18.139999999999986,92,29,3.89,RU,1701192171
380,kralendijk,12.15,-68.2667,30.99000000000001,70,40,8.23,BQ,1701192120
381,huarmey,-10.0681,-78.1522,23.32000000000005,73,32,5.27,PE,1701192172
382,mirnyy,62.5353,113.9611,-18.75999999999999,77,21,4.02,RU,1701192172
383,iwanai,42.9744,140.5089,-1.42999999999995,73,98,9.72,JP,1701192172
384,kaset sombun,16.2805,101.9542,20.230000000000018,72,49,1.39,TH,1701192172
385,takoradi,4.8845,-1.7554,27.920000000000016,74,28,3.68,GH,1701192173
386,revelstoke,50.9832,-118.2023,0.010000000000047748,64,100,0.0,CA,1701192173
387,priob'ye,62.5206,65.5964,-1.099999999999966,97,100,1.23,RU,1701192173
388,gazli,40.1333,63.45,17.32000000000005,27,100,3.47,UZ,1701192173
389,de queen,34.0379,-94.3413,13.07000000000005,54,0,1.54,US,1701192173
390,mahina,-17.5065,-149.489,26.870000000000005,74,75,1.54,PF,1701192174
391,long beach,33.767,-118.1892,20.720000000000027,41,20,1.54,US,1701192174
392,porto novo,6.4965,2.6036,28.900000000000034,75,98,3.75,BJ,1701192174
393,galeana,24.8333,-100.0667,12.860000000000014,71,91,1.09,MX,1701192174
394,ust-tsilma,65.441,52.1498,-10.21999999999997,88,87,3.13,RU,1701192174
395,kargasok,59.0556,80.8572,-8.909999999999968,93,95,4.47,RU,1701192175
396,tonekabon,36.8163,50.8738,11.970000000000027,92,100,1.36,IR,1701192175
397,marvejols,44.5538,3.2914,2.330000000000041,84,79,2.52,FR,1701192175
398,karsava,56.7841,27.6883,-6.089999999999975,96,90,3.33,LV,1701192175
399,arawa,-6.2132,155.5367,25.129999999999995,92,97,1.08,PG,1701192176
400,kununurra,-15.7667,128.7333,26.99000000000001,78,87,3.09,AU,1701192176
401,juneau,58.3019,-134.4197,3.0100000000000477,97,100,1.54,US,1701192054
402,vilhena,-12.7406,-60.1458,29.120000000000005,70,75,2.57,BR,1701192176
403,barcelos,41.5388,-8.6151,15.080000000000041,96,100,2.7,PT,1701192177
404,saint-pierre,-21.3393,55.4781,24.82000000000005,78,75,1.54,RE,1701191904
405,thunder bay,48.4001,-89.3168,-11.009999999999991,62,75,2.57,CA,1701192100
406,argostolion,38.1811,20.489,19.04000000000002,53,40,5.66,GR,1701192177
407,shahr-e babak,30.1165,55.1186,11.200000000000045,38,22,1.13,IR,1701192177
408,bayanhongor,46.7167,100.1167,-21.309999999999974,80,6,1.83,MN,1701192178
409,menzelinsk,55.7271,53.1026,-0.4399999999999977,98,100,1.79,RU,1701192028
410,san patricio,28.017,-97.5169,14.350000000000023,39,73,2.54,US,1701192178
411,shannon,52.7039,-8.8642,7.0,81,75,1.03,IE,1701192178
412,tolanaro,-25.0319,46.9987,26.04000000000002,83,20,10.8,MG,1701192178
413,lazaro cardenas,17.9583,-102.2,30.0,57,96,1.0,MX,1701192179
414,mont-laurier,46.5501,-75.4993,-8.20999999999998,77,99,4.99,CA,1701192179
415,puerto deseado,-47.7503,-65.8938,19.680000000000007,27,1,5.57,AR,1701192084
416,san buenaventura,27.0833,-101.5333,11.150000000000034,42,1,1.34,MX,1701192179
417,dudinka,69.4058,86.1778,-25.579999999999984,100,43,1.86,RU,1701192179
418,shingu,33.7333,135.9833,6.640000000000043,73,3,2.2,JP,1701192180
419,sisimiut,66.9395,-53.6735,-7.029999999999973,72,100,7.16,GL,1701192180
420,zhangye,38.9342,100.4517,-2.349999999999966,49,88,1.91,CN,1701192180
421,sur,22.5667,59.5289,24.710000000000036,67,0,4.11,OM,1701191910
422,beira,-19.8436,34.8389,25.05000000000001,78,40,5.66,MZ,1701192181
423,onguday,50.75,86.15,-3.4699999999999704,70,6,2.12,RU,1701192181
424,chinde,26.8418,88.0763,12.740000000000009,66,93,2.3,NP,1701192181
425,ulundi,-28.3352,31.4162,23.180000000000007,71,100,6.3,ZA,1701192182
426,lethem,3.3803,-59.7968,35.14000000000004,38,29,4.88,GY,1701192182
427,blumenau,-26.9194,-49.0661,22.460000000000036,93,100,0.89,BR,1701192182
428,broken hill,-31.95,141.4333,14.890000000000043,85,19,9.69,AU,1701191958
429,arkalyk,50.2486,66.9114,5.590000000000032,59,100,4.41,KZ,1701192183
430,nishinoomote,30.7333,131.0,17.340000000000032,57,0,6.29,JP,1701192183
431,mili,6.0815,171.735,27.970000000000027,79,100,8.51,MH,1701192184
432,bundi,25.4417,75.6417,21.510000000000048,57,96,2.59,IN,1701192184
433,carauari,-4.8828,-66.8958,34.160000000000025,46,28,2.21,BR,1701192184
434,ritchie,-29.038,24.6028,33.56,9,99,13.25,ZA,1701192185
435,axim,4.8699,-2.2405,28.07000000000005,73,29,3.93,GH,1701192185
436,tofol,5.3248,163.0078,27.83000000000004,79,100,7.61,FM,1701192185
437,hugo,45.16,-92.9933,-5.659999999999968,68,0,4.63,US,1701192186
438,isla mujeres,21.2311,-86.731,28.03000000000003,72,99,8.48,MX,1701192186
439,tsiombe,-25.3,45.4833,24.379999999999995,89,8,6.01,MG,1701192186
440,buguias,16.7227,120.8283,16.350000000000023,96,59,2.02,PH,1701192187
441,tantou,26.0314,119.5986,16.870000000000005,63,75,4.0,CN,1701192187
442,san ignacio,17.1561,-89.0714,27.08000000000004,83,75,0.0,BZ,1701192187
443,longboat key,27.4125,-82.659,15.720000000000027,49,100,2.68,US,1701192188
444,karatuzskoye,53.6072,92.8667,-19.669999999999987,100,86,0.62,RU,1701192188
445,usogorsk,63.4106,48.6872,-5.739999999999952,93,99,4.3,RU,1701192188
446,bardai,11.65,7.2333,29.370000000000005,24,59,3.22,NG,1701192189
447,tumayr,25.7039,45.868,19.650000000000034,31,6,4.64,SA,1701192189
448,zamosc,50.7231,23.252,-1.8799999999999955,97,100,5.01,PL,1701192190
449,mahibadhoo,3.7833,72.9667,26.600000000000023,83,100,4.34,MV,1701192190
450,vila franca do campo,37.7167,-25.4333,19.230000000000018,99,95,3.2,PT,1701192190
451,pisco,-13.7,-76.2167,23.03000000000003,68,0,5.14,PE,1701192190
452,margate,51.3813,1.3862,5.490000000000009,80,9,1.34,GB,1701192191
453,as sulayyil,20.4607,45.5779,24.140000000000043,24,19,3.62,SA,1701192191
454,mianwali,32.5741,71.5264,19.439999999999998,28,1,0.61,PK,1701192191
455,codajas,-3.8367,-62.0569,34.860000000000014,39,60,2.69,BR,1701192191
456,hirara,24.8,125.2833,21.150000000000034,68,20,6.17,JP,1701192192
457,ronneby,56.21,15.276,-5.71999999999997,93,75,2.57,SE,1701192192
458,namibe,-15.1961,12.1522,24.120000000000005,75,66,4.55,AO,1701192192
459,okoneshnikovo,54.8377,75.0834,-3.019999999999982,81,99,5.42,RU,1701192193
460,dehloran,32.6941,47.2679,17.660000000000025,55,0,2.55,IR,1701192193
461,lesozavodsk,45.4794,133.4244,-21.889999999999986,97,62,2.07,RU,1701192193
462,ibshaway,29.358,30.6814,18.590000000000032,37,100,3.88,EG,1701192194
463,kirensk,57.7853,108.1119,-17.099999999999966,99,100,1.06,RU,1701192194
464,albania,41.0,20.0,13.270000000000039,81,87,7.95,AL,1701192195
465,skovorodino,53.9833,123.9167,-15.17999999999995,71,100,3.13,RU,1701192195
466,sao lourenco do oeste,-26.3592,-52.8511,19.060000000000002,97,100,3.27,BR,1701192195
467,sirjan,29.452,55.6814,12.450000000000045,39,30,1.42,IR,1701192196
468,grotte,37.4046,13.7002,13.450000000000045,90,49,4.26,IT,1701192196
469,aoulef,26.9667,1.0833,21.350000000000023,21,100,2.19,DZ,1701192196
470,copiapo,-27.3667,-70.3333,16.83000000000004,32,0,4.5,CL,1701192197
471,metlili chaamba,32.2667,3.6333,20.52000000000004,14,0,1.54,DZ,1701192197
472,las vegas,36.175,-115.1372,12.29000000000002,27,0,1.54,US,1701192048
473,hecun,36.5333,114.1111,3.340000000000032,42,93,3.01,CN,1701192198
474,acarau,-2.8856,-40.12,30.850000000000023,61,30,8.89,BR,1701191924
475,mata-utu,-13.2816,-176.1745,28.680000000000007,80,98,9.87,WF,1701192198
476,ola,59.5833,151.2833,-14.0,75,100,4.26,RU,1701192198
477,mil'kovo,55.6078,37.7956,-4.779999999999973,96,91,3.51,RU,1701192199
478,ebon,4.582,168.6964,28.32000000000005,78,98,6.21,MH,1701192199
479,gereida,11.2811,25.1414,28.640000000000043,18,23,3.75,SD,1701192199
480,conceicao da barra,-18.5933,-39.7322,30.25,54,82,5.31,BR,1701192200
481,antibes,43.5624,7.1278,14.770000000000039,34,0,4.12,FR,1701191991
482,tabou,4.423,-7.3528,27.439999999999998,78,29,2.53,CI,1701192200
483,ambon,-3.6954,128.1814,25.600000000000023,15,40,0.0,ID,1701192185
484,alice town,25.7167,-79.3,23.100000000000023,63,43,4.43,BS,1701192201
485,santa elena de uairen,4.6167,-61.1333,27.620000000000005,49,33,2.56,VE,1701192201
486,palembang,-2.9167,104.7458,26.05000000000001,89,40,0.0,ID,1701192201
487,bogo,11.0517,124.0055,26.29000000000002,87,63,3.74,PH,1701192202
488,manokwari,-0.8667,134.0833,25.890000000000043,82,100,1.06,ID,1701192202
489,tame,6.461,-71.73,31.78000000000003,46,24,3.98,CO,1701192202
490,buckhannon,38.994,-80.232,-3.509999999999991,61,100,4.63,US,1701191949
491,nago,26.5881,127.9761,18.24000000000001,61,0,4.39,JP,1701192203
492,kashary,49.04,41.0056,-0.8700000000000045,92,46,3.16,RU,1701192203
493,mejit,10.2753,170.8646,27.110000000000014,70,100,8.31,MH,1701192204
494,nar'yan-mar,67.6713,53.087,-17.159999999999968,95,88,4.92,RU,1701192204
495,gisborne,-38.6533,178.0042,14.920000000000016,67,4,4.29,NZ,1701192204
496,puerto lempira,15.2667,-83.7667,29.08000000000004,74,75,0.0,HN,1701192204
497,vila velha,-20.3297,-40.2925,29.970000000000027,76,20,6.17,BR,1701192205
498,kintampo,8.0563,-1.7306,31.939999999999998,43,82,2.3,GH,1701192205
499,ifrane,33.3333,-5.25,9.520000000000039,48,58,2.78,MA,1701192205
500,bryan,30.6744,-96.37,14.710000000000036,42,0,3.09,US,1701192003
501,fort bragg,35.139,-79.006,11.57000000000005,37,0,6.69,US,1701192206
502,fountain,38.6822,-104.7008,13.600000000000023,18,0,2.57,US,1701192207
503,bath,51.3779,-2.3591,6.8799999999999955,87,66,1.8,GB,1701191934
504,hpa-an,16.8906,97.6333,23.57000000000005,75,46,0.6,MM,1701192207
505,houghton,47.1219,-88.569,-5.289999999999964,85,100,8.23,US,1701192000
506,prien,30.1819,-93.2738,14.450000000000045,43,0,5.14,US,1701192208
507,granada,37.25,-3.25,10.620000000000005,70,98,1.15,ES,1701192116
508,sombrio,-29.1139,-49.6167,22.189999999999998,97,100,5.87,BR,1701192208
509,shortandy,51.7006,70.9994,-0.8199999999999932,76,32,4.61,KZ,1701192209
510,mariehamn,60.0973,19.9348,-0.0999999999999659,86,100,4.63,AX,1701192209
511,port augusta,-32.5,137.7667,16.910000000000025,71,91,7.79,AU,1701192209
512,valparaiso,-33.0393,-71.6273,19.439999999999998,70,100,3.6,CL,1701192127
513,klazienaveen,52.7242,6.9903,1.07000000000005,89,30,3.21,NL,1701192210
514,dunedin,-45.8742,170.5036,8.220000000000027,71,62,4.92,NZ,1701192210
515,kurtamysh,54.9103,64.4319,1.9800000000000182,79,92,5.36,RU,1701192210
516,dalandzadgad,43.5708,104.425,-12.569999999999993,59,0,3.2,MN,1701192211
517,arraial do cabo,-22.9661,-42.0278,28.980000000000018,74,20,10.8,BR,1701192211
518,nizhniy kuranakh,58.8353,125.4869,-16.859999999999957,95,100,3.29,RU,1701192212
519,kidal,18.4411,1.4078,29.629999999999995,11,0,3.73,ML,1701192212
520,hailey,43.5196,-114.3153,-4.079999999999984,58,0,3.6,US,1701192212
521,fortuna,40.5982,-124.1573,9.430000000000007,79,0,2.06,US,1701192213
522,santa ines,-3.6667,-45.38,35.660000000000025,34,56,3.11,BR,1701191913
523,sibolga,1.7427,98.7792,25.07000000000005,92,100,0.93,ID,1701192213
524,shubarshi,48.5872,57.1869,1.7000000000000455,79,100,7.82,KZ,1701192213
525,cooper's town,26.8667,-77.5167,21.890000000000043,61,26,5.47,BS,1701192214
526,magdagachi,53.45,125.8,-18.72999999999999,86,97,1.7,RU,1701192214
527,tortoli,39.9256,9.6572,15.900000000000034,39,20,14.4,IT,1701192214
528,hungerford,51.4151,-1.5156,5.610000000000014,84,34,2.25,GB,1701192215
529,magadan,59.5667,150.8,-13.879999999999995,74,100,4.38,RU,1701192215
530,vorkuta,67.5,64.0,-16.620000000000005,93,94,3.11,RU,1701192215
531,ataq,14.5377,46.8319,21.930000000000007,34,100,1.35,YE,1701192216
532,viedma,-40.8135,-62.9967,29.200000000000045,30,100,3.92,AR,1701192216
533,howard springs,-12.497,131.047,27.950000000000045,94,87,1.79,AU,1701192216
534,handan,36.6006,114.4678,3.430000000000007,35,91,5.01,CN,1701192217
535,yigo village,13.5361,144.8886,27.160000000000025,84,20,6.69,GU,1701192217
536,torres,-29.3353,-49.7269,22.129999999999995,96,100,7.75,BR,1701192218
537,adam,22.3756,57.5233,25.80000000000001,36,5,2.85,OM,1701192218
538,aldinga beach,-35.2793,138.4604,15.930000000000007,89,96,7.13,AU,1701192218
539,kindu,-2.95,25.95,22.430000000000007,95,83,0.75,CD,1701192218
540,la foa,-21.7108,165.8276,22.180000000000007,77,100,2.53,NC,1701192219
541,delacombe,-37.5891,143.8147,14.850000000000023,88,100,1.34,AU,1701192219
542,charters towers,-20.1,146.2667,23.79000000000002,83,16,3.09,AU,1701192219
543,ceelbuur,4.685,46.6176,27.32000000000005,53,65,5.58,SO,1701192220
544,yanchep,-31.55,115.6833,19.970000000000027,85,22,2.34,AU,1701192220
545,launceston,-41.45,147.1667,11.75,93,40,6.17,AU,1701192221
546,nadi,-17.8,177.4167,25.0,83,20,2.57,FJ,1701191944
547,cabedelo,-6.9811,-34.8339,30.370000000000005,63,64,6.79,BR,1701192221
548,san justo,-30.7891,-60.5919,30.55000000000001,57,0,6.71,AR,1701192222
549,naze,28.3667,129.4833,10.510000000000048,55,0,1.93,JP,1701192222
550,saint-philippe,-21.3585,55.7679,24.77000000000004,83,48,3.61,RE,1701192222
551,evinayong,1.4368,10.5512,21.28000000000003,96,100,0.64,GQ,1701192222
552,waddan,29.1614,16.139,18.720000000000027,28,0,2.4,LY,1701192222
553,goronyo,13.4423,5.6763,33.08000000000004,20,19,3.36,NG,1701192138
554,trancas,-26.2314,-65.2803,35.34000000000003,34,0,4.27,AR,1701192223
555,kasangulu,-4.5911,15.1708,27.52000000000004,98,100,0.92,CD,1701192223
556,crane,31.3974,-102.3501,10.260000000000048,41,16,3.89,US,1701192223
557,zouerate,22.7187,-12.4521,25.400000000000034,10,93,2.71,MR,1701192223
558,bel ombre,-4.6167,55.4167,25.910000000000025,89,20,0.51,SC,1701192224
559,kolonia town,6.964,158.206,26.0,94,100,4.63,FM,1701192224
560,valeggio sul mincio,45.3523,10.7367,8.100000000000023,81,0,2.06,IT,1701192224
561,dali,25.7,100.1833,8.900000000000034,85,40,2.34,CN,1701192224
562,kiunga,-6.1219,141.2906,23.480000000000018,100,100,0.41,PG,1701192225
563,guerrero negro,27.9769,-114.0611,19.620000000000005,62,100,0.95,MX,1701192225
564,winslow,35.0242,-110.6974,1.1000000000000227,55,0,0.0,US,1701192225
565,punta alta,-38.8759,-62.0736,31.710000000000036,60,82,4.8,AR,1701192128
566,balkanabat,39.5108,54.3671,10.600000000000023,64,32,3.45,TM,1701192226
567,taksimo,56.3444,114.8794,-20.169999999999987,86,66,2.48,RU,1701192179
568,dawesville,30.9224,-84.0091,12.600000000000023,41,0,4.12,US,1701192226
569,farafangana,-22.8167,47.8333,25.470000000000027,82,3,6.45,MG,1701192226
570,pasuquin,18.3328,120.6177,25.33000000000004,83,7,4.91,PH,1701192226
571,san antonio de pale,-1.4014,5.6325,27.0,79,86,4.43,GQ,1701192227
572,upata,8.0086,-62.3989,31.700000000000045,45,10,3.39,VE,1701192227
573,bodo,67.28,14.405,-3.9799999999999613,76,0,6.17,NO,1701192227
574,borzya,50.3833,116.5167,-19.99999999999997,88,99,2.6,RU,1701192227
575,palikir - national government center,6.9248,158.1611,25.410000000000025,94,100,4.63,FM,1701192228
576,aliwal north,-30.6937,26.7114,27.350000000000023,30,59,8.25,ZA,1701192228
577,jamaame,0.0697,42.745,26.680000000000007,78,90,3.68,SO,1701192228
578,divnoye,45.9089,43.3547,3.8799999999999955,82,94,5.33,RU,1701192228
579,road town,18.4167,-64.6167,29.02000000000004,70,20,3.6,VG,1701192035
580,kasongo,-4.45,26.6667,21.230000000000018,93,57,0.24,CD,1701192229
581,santa cruz,-17.8,-63.1667,32.700000000000045,55,40,12.35,BO,1701192229
582,badiyah,22.45,58.8,22.060000000000002,70,2,4.89,OM,1701192229
583,toliara,-23.35,43.6667,25.460000000000036,87,1,3.26,MG,1701192230
584,suining,30.508,105.5733,14.879999999999995,65,100,3.49,CN,1701192230
585,isangel,-19.55,169.2667,23.100000000000023,89,94,3.1,VU,1701192230
586,kavieng,-2.5744,150.7967,27.160000000000025,81,54,1.74,PG,1701192198
587,rawson,-43.3002,-65.1023,22.450000000000045,27,43,2.48,AR,1701192006
588,sardarshahr,28.4333,74.4833,20.25,58,41,3.65,IN,1701192231
589,vengerovo,55.6848,76.7471,-7.169999999999959,86,97,3.81,RU,1701192231
590,rengasdengklok,-6.1592,107.2981,26.07000000000005,81,100,2.47,ID,1701192231
591,koungou,-12.7336,45.2042,28.840000000000032,74,0,3.6,YT,1701192232
592,isabela,6.7085,121.9711,26.120000000000005,86,46,1.04,PH,1701192232
593,fort st. john,56.2499,-120.8529,2.9399999999999977,65,75,10.8,CA,1701192232
594,starobesheve,47.7504,38.0305,1.240000000000009,92,51,3.34,UA,1701192232
595,tralee,52.2704,-9.7026,5.140000000000043,93,20,0.0,IE,1701192232
596,winona,43.9666,-91.7668,-8.089999999999975,55,0,2.06,US,1701192233
597,guane,22.2025,-84.0875,25.650000000000034,65,97,5.25,CU,1701192233
598,salinopolis,-0.6136,-47.3561,30.010000000000048,64,53,5.8,BR,1701192233
599,yuzhno-kurilsk,44.0306,145.8556,3.5400000000000205,74,91,9.7,RU,1701192233
600,susuman,62.7833,148.1667,-27.42999999999998,100,100,0.98,RU,1701192234
601,masjed soleyman,31.9364,49.3039,19.629999999999995,56,3,2.02,IR,1701192234
602,caleta de carquin,-11.0925,-77.6267,22.5,73,33,5.47,PE,1701192234
603,boyolangu,-8.1181,111.8935,24.510000000000048,85,100,0.7,ID,1701192234
604,port saint john's,-31.6229,29.5448,22.28000000000003,91,95,7.56,ZA,1701192234
605,mossel bay,-34.1831,22.146,17.960000000000036,65,93,9.4,ZA,1701192235
